,City,Cloudiness,Country,Humidity,Lat,Lng,Max_temp,Wind_speed
1,atambua,1.0,ID,75.0,-9.11,124.89,75.39,17.85
2,avarua,0.0,CK,77.0,-21.21,-159.78,68.0,2.24
3,punta arenas,75.0,CL,100.0,-53.16,-70.91,39.2,6.93
4,severo-kurilsk,59.0,RU,93.0,50.68,156.12,43.71,10.45
5,port alfred,8.0,ZA,90.0,-33.59,26.89,62.01,5.01
6,dosso,15.0,NE,29.0,13.05,3.19,97.53,2.35
7,mount gambier,75.0,AU,87.0,-37.83,140.78,50.0,17.22
8,qaanaaq,51.0,GL,60.0,77.48,-69.36,46.23,12.71
9,albany,20.0,US,45.0,42.65,-73.75,87.01,14.99
10,tuatapere,91.0,NZ,67.0,-46.13,167.69,46.95,22.01
11,ushuaia,20.0,AR,86.0,-54.81,-68.31,41.0,4.7
12,atuona,7.0,PF,75.0,-9.8,-139.03,79.71,16.69
13,gizo,0.0,IL,65.0,31.8,34.94,81.0,6.93
14,bredasdorp,44.0,ZA,87.0,-34.53,20.04,50.0,8.05
15,hobart,75.0,AU,61.0,-42.88,147.33,48.2,14.99
16,moron,5.0,HT,71.0,18.56,-74.26,83.49,6.13
17,brewster,1.0,US,70.0,41.76,-70.08,91.0,4.7
18,lebu,75.0,ET,87.0,8.96,38.73,59.0,4.7
19,cherskiy,98.0,RU,69.0,68.75,161.3,42.45,24.81
20,shimoda,100.0,JP,95.0,34.7,138.93,71.01,4.0
21,tuktoyaktuk,40.0,CA,52.0,69.44,-133.03,64.4,4.7
22,deputatskiy,39.0,RU,85.0,69.3,139.9,46.23,3.02
23,emerald,43.0,AU,60.0,-23.53,148.16,43.0,4.7
24,hermanus,61.0,ZA,84.0,-34.42,19.24,53.01,19.6
25,hasaki,75.0,JP,94.0,35.73,140.83,68.0,9.17
26,makokou,100.0,GA,94.0,0.56,12.85,71.43,1.86
27,ustyuzhna,99.0,RU,85.0,58.84,36.43,53.79,1.95
28,bluff,50.0,AU,57.0,-23.58,149.07,43.71,4.79
29,port-gentil,40.0,GA,88.0,-0.72,8.78,77.0,10.29
30,upernavik,2.0,GL,88.0,72.79,-56.15,44.61,4.07
31,mahebourg,20.0,MU,72.0,-20.41,57.7,66.2,6.93
32,east london,0.0,ZA,88.0,-33.02,27.91,62.6,12.75
33,vao,94.0,EE,67.0,59.1,26.19,55.59,3.69
34,mataura,83.0,NZ,83.0,-46.19,168.86,40.65,8.23
35,kavaratti,100.0,IN,74.0,10.57,72.64,83.31,14.52
36,saint-paul,0.0,FR,35.0,45.22,1.9,81.0,13.87
37,arraial do cabo,0.0,BR,65.0,-22.97,-42.02,80.6,10.29
38,new norfolk,75.0,AU,61.0,-42.78,147.06,48.2,14.99
39,te anau,76.0,NZ,72.0,-45.41,167.72,38.31,5.86
40,dahanu,73.0,IN,81.0,19.97,72.73,83.31,19.84
41,vanavara,100.0,RU,93.0,60.35,102.28,60.63,5.17
42,jamestown,71.0,AU,86.0,-33.21,138.6,47.13,9.73
43,yegorlykskaya,54.0,RU,57.0,46.56,40.65,69.27,4.9
44,mount isa,19.0,AU,32.0,-20.73,139.49,51.8,14.99
45,tasiilaq,75.0,GL,75.0,65.61,-37.64,44.6,6.93
46,salina cruz,100.0,MX,60.0,16.18,-95.2,86.55,7.54
47,san jose,20.0,HN,38.0,14.25,-87.96,91.4,10.29
48,svetlogorsk,75.0,RU,64.0,53.14,59.15,73.4,6.71
49,omsukchan,17.0,RU,52.0,62.53,155.8,61.17,7.74
50,busselton,22.0,AU,64.0,-33.64,115.35,52.0,19.28
51,sayyan,30.0,YE,51.0,15.17,44.32,76.29,4.32
52,mitu,0.0,IR,27.0,36.2,46.09,68.73,6.69
53,rikitea,8.0,PF,85.0,-23.12,-134.97,74.49,14.23
54,morant bay,20.0,JM,55.0,17.88,-76.41,89.6,26.4
55,porto velho,40.0,BR,59.0,-8.75,-63.87,93.2,8.05
56,lyskovo,54.0,RU,68.0,56.03,45.04,59.0,6.17
57,alofi,12.0,NU,88.0,-19.06,-169.92,66.2,1.12
58,laukaa,0.0,FI,67.0,62.42,25.95,59.0,1.12
59,urengoy,99.0,RU,67.0,65.96,78.37,67.83,16.13
60,coquimbo,0.0,CL,54.0,-29.95,-71.34,73.0,13.87
61,torbay,90.0,CA,93.0,47.66,-52.73,57.0,11.41
62,georgetown,40.0,GY,74.0,6.8,-58.16,89.6,9.17
63,yerbogachen,100.0,RU,77.0,61.28,108.01,61.71,4.63
64,kapaa,75.0,US,83.0,22.08,-159.32,82.4,11.41
65,grand gaube,20.0,MU,72.0,-20.01,57.66,66.2,6.93
66,brae,75.0,GB,87.0,60.4,-1.35,53.6,8.05
67,yasnyy,22.0,RU,75.0,64.04,44.09,56.13,0.69
68,altamira,40.0,BR,66.0,-3.2,-52.21,87.8,6.93
69,teacapan,47.0,MX,69.0,22.54,-105.74,85.47,9.42
70,thompson,75.0,CA,68.0,55.74,-97.86,64.4,3.36
71,yulara,0.0,AU,65.0,-25.24,130.99,41.0,9.17
72,payo,36.0,ID,97.0,-3.75,103.64,66.57,2.08
73,seminole,1.0,US,33.0,32.72,-102.64,86.0,8.81
74,lompoc,1.0,US,72.0,34.64,-120.46,82.99,12.75
75,clyde river,75.0,CA,93.0,70.47,-68.59,44.6,16.11
76,mirnyy,3.0,RU,81.0,56.57,36.46,55.41,3.69
77,sarande,0.0,AL,53.0,39.88,20.01,77.0,10.29
78,robe,92.0,ET,87.0,7.12,40.01,48.39,4.94
79,puerto ayora,20.0,EC,61.0,-0.74,-90.35,78.8,19.46
80,talnakh,0.0,RU,93.0,69.49,88.39,53.6,8.95
81,touros,75.0,BR,78.0,-5.2,-35.46,82.4,12.75
82,dasoguz,0.0,TM,31.0,41.84,59.97,91.4,2.04
83,kholmogory,40.0,RU,67.0,64.23,41.65,59.0,2.24
84,havelian,10.0,PK,82.0,34.05,73.15,81.0,4.0
85,san quintin,89.0,PH,93.0,17.54,120.52,74.85,3.58
86,port elizabeth,1.0,US,55.0,39.31,-74.98,93.99,10.29
87,nikolskoye,20.0,RU,62.0,59.7,30.79,59.0,4.47
88,kichera,61.0,RU,74.0,55.93,110.1,55.23,7.4
89,urucara,54.0,BR,65.0,-2.54,-57.76,85.83,4.14
90,boa vista,40.0,BR,49.0,2.82,-60.67,89.6,6.93
91,aioi,68.0,JP,98.0,34.81,134.47,71.01,1.99
92,lorengau,100.0,PG,82.0,-2.02,147.27,78.45,8.28
93,souillac,0.0,FR,32.0,45.6,-0.6,82.99,12.75
94,butaritari,4.0,KI,69.0,3.07,172.79,83.31,4.03
95,yar-sale,51.0,RU,80.0,66.83,70.83,66.93,5.61
96,hilo,90.0,US,78.0,19.71,-155.08,77.0,6.93
97,cape town,0.0,ZA,81.0,-33.93,18.42,53.6,8.05
98,marawi,100.0,PH,96.0,8.0,124.29,73.99,6.49
99,sereflikochisar,78.0,TR,44.0,38.94,33.54,72.15,7.0
100,isangel,90.0,VU,94.0,-19.55,169.27,69.8,9.15
101,arman,82.0,RU,72.0,59.7,150.17,53.97,2.19
102,okha,84.0,RU,96.0,53.59,142.95,50.55,10.96
103,carnarvon,0.0,ZA,20.0,-30.97,22.13,59.19,9.86
104,troitsko-pechorsk,100.0,RU,97.0,62.71,56.19,58.47,6.98
105,saldanha,3.0,PT,40.0,41.42,-6.55,86.01,14.88
106,lavrentiya,89.0,RU,75.0,65.58,-170.99,56.85,3.22
107,sena madureira,2.0,BR,39.0,-9.07,-68.66,92.31,4.03
108,fortuna,90.0,US,93.0,40.6,-124.16,78.01,16.11
109,chuy,72.0,UY,71.0,-33.69,-53.46,51.99,9.01
110,estelle,0.0,FR,35.0,43.97,3.47,86.0,12.75
111,vaini,88.0,IN,88.0,15.34,74.49,77.91,2.04
112,victoria,75.0,BN,88.0,5.28,115.24,78.8,1.12
113,banjarmasin,80.0,ID,88.0,-3.32,114.59,72.51,8.28
114,saraland,100.0,US,79.0,30.82,-88.07,88.0,16.11
115,kisangani,57.0,CD,69.0,0.52,25.21,77.01,1.39
116,san lawrenz,0.0,MT,65.0,36.06,14.2,81.0,8.05
117,khandyga,6.0,RU,90.0,62.65,135.58,60.81,4.63
118,lucapa,0.0,AO,25.0,-8.42,20.74,76.29,4.63
119,leningradskiy,100.0,RU,95.0,69.38,178.42,35.07,3.33
120,kaeo,0.0,NZ,95.0,-35.1,173.78,44.01,1.99
121,constitucion,20.0,MX,41.0,23.99,-104.67,78.01,2.24
122,guerrero negro,0.0,MX,86.0,27.97,-114.04,68.01,7.2
123,marapanim,100.0,BR,80.0,-0.71,-47.7,80.79,19.28
124,barrow,96.0,AR,51.0,-38.31,-60.23,56.31,8.81
125,alice springs,0.0,AU,64.0,-23.7,133.88,35.6,3.36
126,naze,82.0,NG,88.0,5.43,7.07,76.29,7.43
127,ostrovnoy,30.0,RU,89.0,68.05,39.51,41.91,5.88
128,tiksi,35.0,RU,72.0,71.64,128.87,40.47,1.9
129,sola,20.0,TZ,36.0,-3.17,33.8,77.73,10.76
130,kangaatsiaq,0.0,GL,68.0,68.31,-53.46,45.15,14.45
131,jaru,0.0,BR,34.0,-10.43,-62.48,93.39,4.83
132,hami,82.0,CN,15.0,42.84,93.51,85.83,15.35
133,challapata,29.0,BO,21.0,-18.9,-66.78,50.37,1.23
134,zabaykalsk,52.0,CN,50.0,49.64,117.33,65.13,5.06
135,saint george,40.0,GR,53.0,39.45,22.34,77.0,8.05
136,ponta do sol,23.0,BR,35.0,-20.63,-46.0,78.27,4.94
137,graulhet,0.0,FR,28.0,43.76,2.0,84.2,19.46
138,ribeira grande,40.0,PT,50.0,38.52,-28.7,77.0,5.82
139,new haven,20.0,US,41.0,41.31,-72.93,91.99,6.93
140,mezen,29.0,RU,87.0,65.85,44.24,54.51,10.4
141,tual,41.0,ID,81.0,-5.67,132.75,77.37,21.03
142,iqaluit,20.0,CA,66.0,63.75,-68.52,51.8,10.29
143,pucallpa,47.0,PE,44.0,-8.38,-74.54,93.39,1.43
144,vagur,96.0,FO,97.0,61.47,-6.81,51.81,9.55
145,kaitangata,42.0,NZ,77.0,-46.28,169.85,37.0,3.0
146,mazagao,40.0,BR,59.0,-0.12,-51.29,91.4,13.87
147,yellowknife,20.0,CA,39.0,62.45,-114.38,66.2,8.05
148,bristol,40.0,GB,56.0,51.45,-2.6,73.0,12.75
149,sitka,17.0,US,48.0,37.17,-99.65,86.0,5.99
150,katherine,82.0,AU,33.0,-14.47,132.26,62.6,9.17
151,seredka,69.0,RU,87.0,58.06,38.14,54.33,1.99
152,gamba,86.0,CN,68.0,28.28,88.52,43.35,5.99
153,anadyr,40.0,RU,87.0,64.73,177.51,57.2,6.71
154,dikson,90.0,RU,71.0,73.51,80.55,42.09,6.8
155,gonen,20.0,IL,61.0,33.12,35.65,80.6,6.93
156,dunedin,43.0,NZ,79.0,-45.87,170.5,39.99,5.01
157,cleveland,1.0,US,50.0,41.51,-81.69,84.0,4.7
158,sorland,75.0,NO,81.0,67.67,12.69,50.0,6.93
159,kapiri mposhi,0.0,ZM,49.0,-13.97,28.68,60.09,8.37
160,ancud,75.0,CL,81.0,-41.87,-73.83,48.2,10.29
161,kodiak,40.0,US,14.0,39.95,-94.76,93.0,8.05
162,kelvington,67.0,CA,83.0,52.16,-103.52,70.89,3.33
163,vila franca do campo,20.0,PT,64.0,37.72,-25.43,75.2,10.29
164,ankpa,83.0,NG,90.0,7.37,7.63,75.39,4.07
165,ulladulla,14.0,AU,54.0,-35.36,150.48,54.0,25.28
166,esperance,0.0,AU,93.0,-33.86,121.89,44.6,5.82
167,kubuta,20.0,NG,70.0,12.03,8.66,84.2,6.93
168,khatanga,27.0,RU,62.0,71.98,102.47,47.49,10.0
169,san patricio,100.0,PY,96.0,-26.98,-56.83,63.87,7.05
170,waipawa,17.0,NZ,87.0,-39.94,176.59,46.0,14.0
171,turayf,0.0,SA,19.0,31.68,38.65,86.0,6.93
172,tromso,75.0,NO,71.0,69.65,18.96,51.8,11.41
173,pasto,40.0,CO,77.0,1.21,-77.28,68.0,5.82
174,surat thani,30.0,TH,92.0,9.14,99.33,75.03,3.18
175,bandipur,100.0,IN,94.0,11.67,76.63,65.31,0.78
176,khor,98.0,RU,92.0,47.88,134.96,59.19,7.14
177,vysha,0.0,RU,72.0,53.85,42.38,57.03,3.04
178,sterling,75.0,US,43.0,39.0,-77.4,93.99,11.41
179,galle,79.0,GN,87.0,10.08,-12.83,77.01,3.58
180,praia da vitoria,40.0,PT,64.0,38.73,-27.07,75.2,7.2
181,jalu,0.0,LY,26.0,29.03,21.55,92.67,12.97
182,moranbah,96.0,AU,53.0,-22.0,148.04,44.79,10.2
183,cabo san lucas,20.0,MX,55.0,22.89,-109.91,93.99,13.87
184,codrington,0.0,AU,74.0,-28.95,153.24,50.0,12.75
185,katsuura,75.0,JP,88.0,33.93,134.5,73.4,8.05
186,nanortalik,97.0,GL,89.0,60.14,-45.24,40.11,9.01
187,cidreira,100.0,BR,74.0,-30.17,-50.22,58.11,6.89
188,marienburg,75.0,DE,72.0,52.12,9.98,63.0,5.82
189,marshalltown,40.0,US,52.0,42.04,-92.91,89.6,10.29
190,kruisfontein,12.0,ZA,93.0,-34.0,24.73,51.81,6.49
191,scornicesti,80.0,RO,93.0,44.57,24.55,66.99,2.24
192,wanxian,92.0,CN,84.0,30.8,108.39,72.51,2.44
193,luderitz,0.0,NA,93.0,-26.65,15.16,51.8,10.29
194,haines junction,87.0,CA,56.0,60.75,-137.51,55.95,6.42
195,mecca,0.0,SA,48.0,21.43,39.83,86.19,7.74
196,hithadhoo,18.0,MV,75.0,-0.6,73.08,83.67,9.66
197,ust-tsilma,100.0,RU,81.0,65.44,52.15,57.93,4.79
198,porto novo,0.0,BR,28.0,-23.68,-45.44,82.4,11.41
199,sao filipe,75.0,CV,86.0,14.9,-24.5,74.31,13.18
200,borsa,100.0,RO,79.0,47.66,24.66,54.0,4.03
201,morro bay,75.0,US,82.0,35.37,-120.85,91.0,5.82
202,kavieng,100.0,PG,84.0,-2.57,150.8,79.17,11.68
203,middlebury,20.0,US,65.0,44.01,-73.17,80.01,8.05
204,salta,40.0,AR,42.0,-24.79,-65.41,69.8,4.7
205,brigantine,1.0,US,49.0,39.41,-74.36,93.99,11.41
206,drovyanaya,51.0,RU,77.0,51.58,113.05,59.0,6.71
207,richards bay,0.0,ZA,80.0,-28.77,32.06,71.07,21.56
208,conneaut,1.0,US,44.0,41.95,-80.55,80.01,5.82
209,cassilandia,29.0,BR,38.0,-19.11,-51.73,82.95,1.68
210,castro,75.0,CL,81.0,-42.48,-73.76,48.2,10.29
211,lagoa,0.0,PT,73.0,37.14,-8.45,84.0,20.8
212,tessalit,69.0,ML,13.0,20.2,1.01,102.93,11.52
213,buraydah,0.0,SA,18.0,26.33,43.97,96.8,5.82
214,olinda,90.0,AU,87.0,-37.84,145.39,50.0,14.99
215,jacareacanga,53.0,BR,36.0,-6.22,-57.76,93.39,4.23
216,bathsheba,75.0,BB,74.0,13.22,-59.52,84.2,24.16
217,acapulco,40.0,MX,79.0,16.86,-99.88,84.2,5.82
218,vardo,1.0,US,38.0,39.62,-77.74,91.99,14.99
219,nemuro,95.0,JP,94.0,43.32,145.57,52.89,13.76
220,saint-philippe,90.0,CA,60.0,45.36,-73.48,79.0,9.17
221,nishihara,90.0,JP,100.0,35.74,139.53,71.01,3.0
222,vestmannaeyjar,90.0,IS,100.0,63.44,-20.27,53.6,18.34
223,nome,75.0,US,66.0,30.04,-94.42,91.0,11.41
224,cockburn town,40.0,TC,59.0,21.46,-71.14,89.6,12.75
225,padang,56.0,ID,79.0,-0.92,100.36,82.41,9.8
226,itaituba,40.0,BR,59.0,-4.26,-55.99,91.4,5.26
227,quatre cocos,20.0,MU,72.0,-20.21,57.76,66.2,6.93
228,idil,0.0,TR,15.0,37.34,41.89,77.37,10.36
229,fort abbas,0.0,PK,36.0,29.19,72.85,99.51,23.53
230,clarksburg,1.0,US,55.0,39.24,-77.28,93.99,9.17
231,waitati,43.0,NZ,78.0,-45.75,170.57,39.99,4.0
232,norman wells,75.0,CA,77.0,65.28,-126.83,59.0,3.36
233,mar del plata,100.0,AR,59.0,-46.43,-67.52,45.15,5.66
234,urubicha,77.0,BO,38.0,-15.63,-63.08,89.43,5.35
235,mabaruma,38.0,GY,52.0,8.2,-59.78,90.15,2.44
236,finschhafen,100.0,PG,98.0,-6.6,147.85,63.69,2.59
237,amapa,40.0,HN,49.0,15.09,-87.97,93.2,10.29
238,dingle,99.0,PH,90.0,11.0,122.67,73.23,4.25
239,ushumun,75.0,RU,97.0,52.78,126.54,60.63,4.61
240,mayo,20.0,CA,52.0,63.59,-135.9,69.8,8.05
241,phanom sarakham,40.0,TH,66.0,13.75,101.35,91.99,9.17
242,uruzgan,0.0,AF,17.0,32.93,66.63,66.57,5.21
243,kulhudhuffushi,100.0,MV,74.0,6.62,73.07,83.49,8.41
244,hay river,40.0,CA,72.0,60.82,-115.79,62.6,11.41
245,lahat,36.0,ID,97.0,-3.78,103.55,66.57,2.08
246,rapid city,75.0,US,78.0,44.08,-103.23,90.0,9.17
247,ballina,20.0,IE,49.0,54.11,-9.15,71.01,8.05
248,abha,77.0,SA,44.0,18.22,42.5,84.2,4.7
249,isla mujeres,75.0,MX,66.0,21.23,-86.73,87.8,10.29
250,changde,96.0,CN,92.0,29.04,111.68,72.51,1.83
251,ariquemes,0.0,BR,31.0,-9.91,-63.03,94.65,4.41
252,geraldton,90.0,CA,50.0,49.72,-86.95,75.2,10.29
253,lucca,0.0,IT,42.0,43.84,10.5,84.99,8.05
254,sioux lookout,90.0,CA,100.0,50.1,-91.92,69.8,3.36
255,airai,35.0,TL,82.0,-8.93,125.41,66.39,5.93
256,nanga eboko,100.0,CM,95.0,4.68,12.37,69.27,1.41
257,kirovsk,95.0,RU,81.0,67.62,33.66,45.69,6.17
258,ixtapa,75.0,MX,58.0,20.71,-105.21,89.01,9.17
259,nago,40.0,IT,44.0,45.88,10.89,82.4,9.17
260,wladyslawowo,0.0,PL,55.0,54.79,18.4,64.99,12.75
261,poum,20.0,MK,48.0,41.28,20.71,66.2,4.7
262,chokurdakh,100.0,RU,93.0,70.62,147.9,46.77,9.04
263,shenjiamen,99.0,CN,93.0,29.96,122.3,74.13,7.54
264,bandarbeyla,98.0,SO,59.0,9.49,50.81,81.15,23.44
265,loralai,44.0,PK,32.0,30.37,68.6,82.95,7.63
266,sweetwater,90.0,US,54.0,32.47,-100.41,91.4,10.22
267,dudinka,0.0,RU,93.0,69.41,86.18,53.6,8.95
268,abonnema,100.0,NG,87.0,4.71,6.79,77.01,8.3
269,cabedelo,75.0,BR,78.0,-6.97,-34.84,80.6,14.99
270,cocobeach,75.0,GA,83.0,1.01,9.58,78.8,5.82
271,dwarka,75.0,IN,55.0,28.58,77.04,95.0,9.17
272,brasilia,40.0,BR,78.0,-10.9,-37.55,78.8,10.29
273,aragarcas,40.0,BR,38.0,-15.9,-52.25,91.4,9.17
274,taitung,67.0,TW,74.0,22.76,121.15,62.43,4.16
275,price,1.0,US,28.0,39.6,-110.81,88.0,4.7
276,san cristobal,12.0,HN,38.0,14.68,-86.92,85.65,8.79
277,mujiayingzi,0.0,CN,60.0,42.12,118.78,63.15,3.42
278,petropavlovsk-kamchatskiy,0.0,RU,93.0,53.05,158.65,50.0,2.24
279,todos santos,40.0,MX,46.0,23.45,-110.23,93.99,11.41
280,nenjiang,96.0,CN,92.0,49.17,125.23,63.69,4.63
281,honiara,75.0,SB,100.0,-9.43,159.96,71.6,6.82
282,manaus,40.0,BR,66.0,-3.13,-59.98,89.6,4.7
283,beyneu,0.0,KZ,57.0,45.32,55.19,75.57,22.08
284,zhigansk,16.0,RU,76.0,66.77,123.37,53.43,11.21
285,andros town,75.0,BS,88.0,24.73,-77.79,81.0,20.8
286,pangnirtung,75.0,CA,81.0,66.15,-65.72,50.0,16.11
287,iberia,12.0,PE,50.0,-11.41,-69.49,87.27,4.36
288,preobrazheniye,98.0,RU,98.0,42.9,133.91,58.65,2.13
289,vilhena,0.0,BR,45.0,-12.74,-60.15,86.0,8.05
290,port lincoln,96.0,AU,74.0,-34.72,135.86,55.05,18.01
291,kieta,69.0,PG,83.0,-6.22,155.63,77.91,3.87
292,krasnoarmeysk,0.0,RU,63.0,56.12,38.15,62.6,6.71
293,longyearbyen,40.0,NO,70.0,78.22,15.63,46.4,11.41
294,jilin,16.0,CN,90.0,43.84,126.54,63.51,2.19
295,turan,84.0,RU,96.0,52.15,93.92,50.19,4.65
296,salinas,1.0,US,36.0,36.67,-121.66,84.99,4.36
297,fasa,40.0,IR,24.0,28.94,53.65,91.4,13.87
298,lasa,75.0,CY,74.0,34.92,32.53,78.8,11.41
299,mutoko,0.0,ZW,48.0,-17.4,32.23,53.43,4.03
300,amahai,97.0,ID,93.0,-3.31,129.0,77.0,14.25
301,narrabri,90.0,AU,75.0,-30.33,149.78,41.0,2.24
302,dunmore town,0.0,BS,78.0,25.5,-76.65,82.77,12.37
303,awjilah,0.0,LY,29.0,29.14,21.3,91.41,15.48
304,nalut,0.0,LY,9.0,31.86,10.98,103.29,8.61
305,yaan,54.0,NG,91.0,7.38,8.57,77.55,3.51
306,saint anthony,1.0,US,37.0,43.97,-111.68,84.0,11.41
307,pisco,90.0,PE,30.0,-13.71,-76.2,71.6,6.93
308,saskylakh,3.0,RU,66.0,71.97,114.09,44.61,10.02
309,mtama,67.0,TZ,64.0,-10.3,39.37,69.27,8.01
310,broome,75.0,GB,77.0,52.47,1.45,64.0,6.93
311,ulaangom,90.0,MN,59.0,49.98,92.07,67.11,7.05
312,meadow lake,75.0,CA,64.0,54.13,-108.44,73.4,2.24
313,avera,1.0,US,52.0,33.19,-82.53,95.0,12.75
314,portmore,20.0,JM,55.0,17.97,-76.87,89.6,26.4
315,banda aceh,99.0,ID,72.0,5.56,95.32,83.13,12.03
316,tokonou,45.0,GN,88.0,9.65,-9.78,77.37,3.87
317,ust-nera,97.0,RU,68.0,64.57,143.24,60.09,4.56
318,taoudenni,54.0,ML,13.0,22.68,-3.98,108.51,12.15
319,mittagong,94.0,AU,54.0,-34.45,150.45,54.0,25.28
320,nampula,40.0,MZ,88.0,-15.12,39.26,68.0,6.93
321,gerash,75.0,IR,42.0,27.67,54.14,86.0,4.7
322,vestmanna,100.0,FO,100.0,62.16,-7.17,53.6,4.7
323,biak,91.0,ID,96.0,-0.91,122.88,58.83,5.68
324,bambous virieux,20.0,MU,72.0,-20.34,57.76,66.2,6.93
325,bad doberan,90.0,DE,72.0,54.11,11.9,64.0,9.17
326,fairbanks,1.0,US,68.0,64.84,-147.72,70.0,2.66
327,peace river,75.0,CA,72.0,56.23,-117.29,68.0,8.05
328,puri,0.0,ID,89.0,-7.54,112.45,68.19,6.35
329,harper,40.0,US,46.0,30.3,-99.24,95.0,9.42
330,sao jose da coroa grande,52.0,BR,87.0,-8.9,-35.15,76.29,7.11
331,launceston,1.0,AU,87.0,-41.43,147.14,42.8,9.17
332,anloga,20.0,GH,78.0,5.79,0.9,78.8,10.29
333,ibra,60.0,OM,54.0,22.69,58.55,82.59,6.26
334,zyryanka,80.0,RU,69.0,65.73,150.89,58.47,28.72
335,hovd,75.0,NO,87.0,63.83,10.7,53.01,17.22
336,florence,1.0,US,52.0,34.2,-79.77,96.01,3.36
337,flinders,80.0,AU,54.0,-34.58,150.85,55.0,25.28
338,husavik,69.0,CA,48.0,50.56,-96.99,81.0,8.01
339,myitkyina,100.0,MM,99.0,25.38,97.4,72.51,2.17
340,puerto escondido,40.0,MX,66.0,15.86,-97.07,86.0,6.93
341,dickinson,1.0,US,51.0,46.88,-102.79,87.01,4.7
342,sai buri,50.0,TH,86.0,6.7,101.62,74.49,2.08
343,jining,39.0,CN,70.0,35.41,116.58,76.65,10.69
344,pelym,82.0,RU,68.0,61.01,62.0,72.51,8.7
345,dondo,20.0,MZ,68.0,-19.62,34.74,71.6,4.7
346,balvi,84.0,LV,79.0,57.13,27.27,56.13,4.85
347,silleda,20.0,ES,69.0,42.7,-8.25,78.01,9.17
348,linhares,0.0,BR,27.0,-19.38,-40.06,85.65,4.18
349,ituporanga,98.0,BR,97.0,-27.41,-49.6,66.0,4.94
350,narsaq,75.0,GL,39.0,60.91,-46.05,66.2,8.05
351,cuenca,75.0,EC,72.0,-2.9,-79.0,60.8,9.17
352,itaqui,82.0,BR,57.0,-29.13,-56.55,65.49,9.89
353,sabana de torres,40.0,CO,69.0,7.39,-73.5,87.8,6.93
354,hambantota,0.0,LK,94.0,6.12,81.12,78.8,5.82
355,inongo,80.0,CD,69.0,-1.93,18.29,78.63,4.23
356,phalombe,35.0,MW,82.0,-15.81,35.65,56.67,5.93
357,tessaoua,53.0,NE,22.0,13.76,7.99,98.79,1.79
358,camacha,40.0,PT,83.0,33.08,-16.33,75.2,14.99
359,orumiyeh,0.0,IR,45.0,37.55,45.08,68.0,4.7
360,paducah,1.0,US,69.0,37.08,-88.6,86.0,4.7
361,sosnovo-ozerskoye,76.0,RU,63.0,52.53,111.54,57.93,6.31
362,campbell river,75.0,CA,72.0,50.02,-125.24,68.0,3.36
363,nioro,64.0,GM,39.0,13.79,-15.05,95.91,10.63
364,morondava,0.0,MG,65.0,-20.3,44.28,75.39,14.85
365,coro,68.0,VE,65.0,11.41,-69.67,85.65,31.09
366,newport,40.0,US,61.0,41.49,-71.31,91.4,6.93
367,awbari,0.0,LY,11.0,26.59,12.77,98.43,12.8
368,rawson,93.0,AR,42.0,-43.3,-65.11,53.79,16.89
369,santa catarina de tepehuanes,20.0,MX,33.0,25.34,-105.72,74.49,10.45
370,kushiro,100.0,JP,97.0,43.11,144.15,54.51,7.23
371,la macarena,65.0,CO,86.0,2.18,-73.79,79.17,2.71
372,luganville,100.0,VU,93.0,-15.51,167.18,68.91,1.32
373,aitape,67.0,PG,90.0,-3.15,142.36,75.57,3.53
374,saint-georges,64.0,CA,63.0,46.12,-70.67,73.0,5.99
375,puqi,70.0,CN,92.0,29.72,113.88,74.31,7.4
376,port hardy,75.0,CA,93.0,50.7,-127.42,57.2,3.36
377,raglan,74.0,AU,39.0,-23.72,150.82,50.0,6.93
378,port blair,100.0,IN,78.0,11.67,92.75,84.21,22.5
379,ferme-neuve,9.0,CA,39.0,46.7,-75.45,73.41,10.11
380,tevaitoa,92.0,PF,78.0,-16.78,-151.5,78.81,15.84
381,muroto,66.0,JP,96.0,33.37,134.14,69.99,1.5
382,sucua,90.0,EC,88.0,-2.46,-78.17,69.8,3.36
383,nanakuli,40.0,US,65.0,21.39,-158.15,82.4,12.75
384,westport,40.0,US,38.0,41.14,-73.36,91.99,11.41
385,college,1.0,US,68.0,64.86,-147.8,70.0,2.66
386,tawang,100.0,BT,97.0,27.59,91.87,56.13,1.16
387,qaqortoq,75.0,GL,39.0,60.72,-46.03,66.2,8.05
388,prince rupert,90.0,CA,88.0,54.32,-130.32,62.6,3.36
389,kirkuk,0.0,IQ,16.0,35.47,44.4,89.97,9.46
390,natal,75.0,BR,65.0,-5.81,-35.21,82.4,17.22
391,tres arroyos,96.0,AR,51.0,-38.38,-60.28,56.31,8.81
392,tabas,0.0,IR,11.0,33.6,56.92,104.0,6.93
393,meulaboh,98.0,ID,70.0,4.14,96.13,83.13,6.13
394,solenzo,45.0,BF,51.0,12.18,-4.08,86.73,5.26
395,kankan,48.0,GN,86.0,10.38,-9.3,79.89,1.9
396,port macquarie,0.0,AU,46.0,-31.43,152.91,51.01,14.99
397,ngorongoro,0.0,TZ,61.0,-3.24,35.49,66.03,15.14
398,tuy hoa,14.0,VN,80.0,13.08,109.3,76.83,5.68
399,orlik,0.0,PL,55.0,53.95,17.74,66.99,12.75
400,veinticinco de mayo,100.0,AR,98.0,-27.38,-54.75,64.41,0.25
401,minab,75.0,IR,75.0,27.15,57.07,93.2,6.93
402,kasulu,43.0,TZ,61.0,-4.57,30.11,68.73,3.11
403,havelock,40.0,US,49.0,34.88,-76.9,95.0,5.82
404,hofn,90.0,IS,93.0,64.25,-15.21,53.6,5.82
405,gorontalo,81.0,ID,85.0,0.54,123.06,73.59,7.27
406,shelburne,1.0,CA,50.0,44.08,-80.2,81.0,12.75
407,chepareria,50.0,KE,73.0,1.32,35.2,68.37,4.27
408,severomuysk,2.0,RU,87.0,56.17,113.57,45.69,2.24
409,porec,0.0,HR,53.0,45.23,13.59,77.0,5.82
410,hargeysa,53.0,SO,60.0,9.56,44.06,72.15,26.31
411,henties bay,0.0,NA,94.0,-22.12,14.28,54.0,9.4
412,dawlatabad,0.0,AF,8.0,36.41,64.91,88.35,12.68
413,kahului,1.0,US,58.0,20.89,-156.47,82.4,16.11
414,yuci,96.0,CN,73.0,37.68,112.73,73.4,6.71
415,hirara,0.0,JP,82.0,24.8,125.28,83.49,9.13
416,wisconsin rapids,1.0,US,51.0,44.39,-89.82,86.0,4.7
417,antalaha,47.0,MG,92.0,-14.9,50.28,57.21,3.2
418,udachnyy,75.0,RU,76.0,66.42,112.4,57.2,6.71
419,matay,0.0,EG,16.0,28.42,30.79,89.61,10.63
420,stuhr,75.0,DE,72.0,53.03,8.75,61.0,9.17
421,samba,40.0,IN,83.0,32.56,75.12,80.6,6.93
422,gaoyou,1.0,CN,84.0,32.79,119.43,75.0,1.01
423,zabid,88.0,YE,52.0,14.2,44.5,74.85,5.26
424,foumban,100.0,CM,91.0,5.73,10.9,64.41,2.26
425,itacoatiara,42.0,BR,76.0,-3.14,-58.44,83.85,2.24
426,sorong,100.0,ID,91.0,-0.86,131.25,73.23,8.48
427,urla,20.0,TR,83.0,38.32,26.77,73.4,5.82
428,mataram,48.0,ID,98.0,-5.32,105.06,68.55,1.25
429,pevek,91.0,RU,94.0,69.7,170.27,34.35,11.97
430,portland,40.0,US,48.0,43.66,-70.25,86.0,12.75
431,baykit,47.0,RU,96.0,61.68,96.39,50.73,2.68
432,neustadt,75.0,CH,82.0,47.05,8.31,66.99,4.7
433,duartina,0.0,BR,28.0,-22.41,-49.41,86.0,9.17
434,outlook,10.0,CA,72.0,51.48,-107.04,73.0,5.82
435,niamey,20.0,NE,30.0,13.52,2.11,96.8,4.7
436,coahuayana,91.0,MX,72.0,18.62,-100.35,84.21,2.19
437,roald,40.0,NO,76.0,62.58,6.12,57.2,5.82
438,ardakan,40.0,IR,13.0,32.31,54.02,102.2,6.93
439,verkhnyaya inta,100.0,RU,90.0,65.99,60.32,60.63,5.41
440,ikungi,41.0,TZ,52.0,-5.13,34.77,68.19,8.01
441,along,100.0,IN,100.0,28.17,94.8,59.37,2.08
442,lumeje,0.0,AO,23.0,-11.56,20.78,66.75,4.29
443,tiznit,0.0,MA,90.0,29.7,-9.73,69.09,9.17
444,boyabat,100.0,TR,88.0,41.47,34.77,57.93,3.44
445,san,58.0,ML,37.0,13.3,-4.9,93.21,1.36
446,beringovskiy,86.0,RU,88.0,63.05,179.32,53.97,3.13
447,pochutla,40.0,MX,59.0,15.74,-96.47,90.0,3.53
448,faanui,98.0,PF,76.0,-16.48,-151.75,79.53,11.12
449,sarahan,92.0,IN,85.0,31.51,77.79,57.57,2.59
450,leshukonskoye,16.0,RU,61.0,64.9,45.76,57.57,1.57
451,san matias,0.0,BO,20.0,-16.36,-58.4,97.89,6.26
452,zaozhuang,13.0,CN,87.0,34.86,117.55,71.43,5.3
453,coruripe,13.0,BR,79.0,-10.12,-36.18,78.09,10.85
454,verkhnevilyuysk,33.0,RU,69.0,63.45,120.31,59.73,3.83
455,payakumbuh,50.0,ID,97.0,-0.23,100.63,66.57,3.02
456,laguna,40.0,BZ,70.0,16.17,-88.94,89.6,4.7
457,sao joao da barra,0.0,BR,29.0,-21.64,-41.05,89.6,5.82
458,comodoro rivadavia,75.0,AR,71.0,-45.87,-67.48,51.8,4.7
459,terre haute,1.0,US,49.0,39.47,-87.41,91.0,3.36
460,abu dhabi,0.0,AE,67.0,24.47,54.37,93.2,10.29
461,deer lake,40.0,CA,41.0,49.18,-57.43,78.8,2.24
462,sitrah,0.0,BH,46.0,26.15,50.62,93.2,10.29
463,port hedland,0.0,AU,26.0,-20.31,118.58,55.4,8.05
464,poronaysk,100.0,RU,96.0,49.22,143.1,50.01,4.88
465,lomas de sargentillo,40.0,EC,69.0,-1.88,-80.08,78.8,5.82
466,muravlenko,9.0,RU,63.0,63.79,74.5,73.59,17.6
467,doha,0.0,QA,22.0,25.29,51.53,96.8,11.41
468,iranshahr,40.0,IR,27.0,27.21,60.69,100.4,11.41
469,pacific grove,90.0,US,77.0,36.62,-121.92,84.99,9.17
470,kamaishi,72.0,JP,98.0,39.28,141.86,58.29,3.83
471,santa maria,0.0,BR,23.0,-16.02,-48.01,82.4,3.36
472,neyshabur,58.0,IR,31.0,36.21,58.79,82.05,18.95
473,okhotsk,100.0,RU,94.0,59.36,143.24,52.17,7.54
474,methala,40.0,IN,94.0,10.22,76.22,84.0,6.93
475,adelaide,75.0,AU,87.0,-34.93,138.6,53.01,11.41
476,saint-ambroise,75.0,CA,64.0,48.56,-71.32,72.0,14.99
477,irmo,40.0,US,55.0,34.09,-81.18,93.0,5.82
478,berlevag,75.0,NO,70.0,70.86,29.09,46.4,11.41
479,sazonovo,10.0,RU,70.0,54.2,39.81,55.99,2.73
480,aklavik,75.0,CA,64.0,68.22,-135.01,69.8,5.82
481,batticaloa,94.0,LK,80.0,7.71,81.69,79.53,1.86
482,diffa,71.0,NE,18.0,13.32,12.61,101.13,3.0
483,coihaique,20.0,CL,75.0,-45.58,-72.07,46.4,5.82
484,porto empedocle,5.0,IT,74.0,37.29,13.53,84.99,5.82
485,egvekinot,100.0,RU,90.0,66.32,-179.17,51.81,10.13
486,forio,40.0,IT,42.0,40.73,13.86,82.4,9.46
487,billings,20.0,US,35.0,45.79,-108.5,87.01,8.05
488,plettenberg bay,56.0,ZA,86.0,-34.05,23.37,54.87,4.05
489,karatau,0.0,KZ,54.0,43.18,70.46,80.01,1.01
490,hays,1.0,US,48.0,38.88,-99.33,95.0,11.41
491,yumen,0.0,CN,24.0,40.29,97.04,77.37,9.98
492,makat,100.0,KZ,78.0,47.65,53.35,68.37,24.74
493,raudeberg,20.0,NO,66.0,61.99,5.14,59.0,28.86
494,hamilton,40.0,CA,50.0,43.26,-79.87,81.0,10.29
495,castle rock,90.0,US,72.0,46.27,-122.91,75.0,3.36
496,klyuchi,0.0,RU,73.0,52.25,79.17,68.19,11.41
497,dhing,100.0,IN,98.0,26.46,92.48,75.03,3.4
498,adrar,0.0,DZ,4.0,27.87,-0.29,116.6,3.87
499,nsanje,8.0,MZ,61.0,-16.92,35.26,64.77,5.64
500,artvin,75.0,TR,78.0,41.18,41.83,73.4,3.36
501,lethem,0.0,GY,47.0,3.38,-59.8,90.69,9.04
502,bethel,75.0,US,82.0,60.79,-161.76,62.6,3.36
503,bonthe,56.0,SL,80.0,7.53,-12.5,77.91,11.81
504,coolum beach,33.0,AU,76.0,-26.53,153.09,50.0,2.73
505,chishtian mandi,0.0,PK,33.0,29.8,72.87,101.67,16.53
506,port keats,31.0,AU,40.0,-14.25,129.55,64.59,17.96
507,tikrit,0.0,IQ,17.0,34.62,43.68,91.77,11.43
508,la ronge,40.0,CA,68.0,55.1,-105.3,68.0,4.7
509,snasa,75.0,NO,76.0,64.25,12.38,53.6,5.82
510,sur,69.0,OM,65.0,22.57,59.53,83.67,16.51
511,pangai,75.0,TO,73.0,-19.8,-174.35,75.2,16.11
512,aswan,0.0,EG,9.0,24.09,32.9,105.8,9.17
513,zdzieszowice,0.0,PL,55.0,50.42,18.12,64.4,8.05
514,karratha,0.0,AU,25.0,-20.74,116.85,64.95,15.97
515,shieli,0.0,KZ,14.0,44.18,66.74,91.23,7.23
516,tumut,100.0,AU,97.0,-35.3,148.22,38.85,14.45
517,malabo,28.0,CD,82.0,1.56,30.43,67.29,2.98
518,lovington,5.0,US,35.0,32.94,-103.35,88.0,5.82
519,solnechnyy,100.0,RU,90.0,50.72,136.64,60.09,1.3
520,carutapera,100.0,BR,70.0,-1.2,-46.02,82.95,9.78
521,kalmunai,94.0,LK,80.0,7.42,81.82,79.53,1.86
522,porbandar,99.0,IN,84.0,21.64,69.61,82.59,22.88
523,orissaare,50.0,EE,48.0,58.56,23.08,64.4,10.29
524,hastings,17.0,NZ,76.0,-39.64,176.84,45.15,7.52
525,ust-maya,0.0,RU,88.0,60.42,134.54,59.55,2.3
526,zlobin,0.0,HR,44.0,45.29,14.65,82.0,4.7
527,mikun,81.0,RU,81.0,62.35,50.08,55.77,1.83
528,margate,75.0,AU,61.0,-43.03,147.26,48.2,14.99
529,bosaso,3.0,SO,68.0,11.28,49.18,88.17,4.76
530,tautira,75.0,PF,65.0,-17.73,-149.15,77.0,11.41
531,am timan,30.0,TD,75.0,11.04,20.28,80.07,5.06
532,sobolevo,100.0,RU,88.0,54.43,31.9,55.23,3.49
533,moose factory,1.0,CA,60.0,51.26,-80.61,71.6,8.05
534,tulu bolo,96.0,ET,87.0,8.66,38.21,57.39,2.46
535,viloco,7.0,BO,27.0,-16.87,-67.5,53.97,7.05
536,corinto,40.0,CO,54.0,3.17,-76.26,84.2,4.7
537,mayskiy,40.0,RU,72.0,43.63,44.06,66.2,2.24
538,high level,90.0,CA,82.0,58.52,-117.13,57.2,11.41
539,liberty,1.0,US,62.0,39.64,-84.93,93.0,8.05
540,port augusta,72.0,AU,81.0,-32.49,137.76,50.0,6.93
541,klaksvik,100.0,FO,100.0,62.23,-6.59,53.6,4.7
542,nizwa,83.0,OM,38.0,22.93,57.53,83.49,3.67
543,luebo,31.0,CD,31.0,-5.35,21.42,83.31,2.28
544,safford,1.0,US,19.0,32.83,-109.71,98.6,6.93
545,wahiawa,75.0,US,83.0,21.5,-158.02,82.4,9.17
546,karacabey,75.0,TR,77.0,40.21,28.36,71.01,6.93
547,alford,42.0,GB,77.0,53.26,0.18,66.0,18.34
548,port antonio,20.0,JM,55.0,18.18,-76.45,89.6,26.4
549,crucea,75.0,RO,93.0,47.35,25.61,57.99,9.17
550,kribi,84.0,CM,86.0,2.94,9.91,78.09,14.74
551,campos novos,90.0,BR,90.0,-27.4,-51.22,63.15,6.4
552,safita,20.0,SY,69.0,34.82,36.12,77.0,6.93
553,trinidad,40.0,BO,59.0,-14.83,-64.9,89.6,5.82
554,do gonbadan,0.0,IR,12.0,30.36,50.8,93.2,2.48
